,City,Cloudiness,Country,Date,Humidity,Temp,Lat,Lng,Wind Speed
0,albany,7,US,1619895323,31,55.99,42.6001,-73.9662,8.01
1,mar del plata,0,AR,1619895278,49,72.0,-38.0023,-57.5575,14.97
2,ushuaia,20,AR,1619895544,65,44.6,-54.8,-68.3,4.61
3,ancud,75,CL,1619895545,82,60.01,-41.8697,-73.8203,12.66
4,erdenet,33,MN,1619895545,81,38.77,49.0333,104.0833,4.7
5,butaritari,99,KI,1619895499,76,82.63,3.0707,172.7902,11.81
6,tailai,4,CN,1619895545,47,46.96,46.3833,123.4,7.07
7,kanigoro,73,ID,1619895546,93,73.02,-8.13,112.219,2.64
8,trincomalee,100,LK,1619895546,77,82.47,8.5711,81.2335,8.61
9,aguilas,100,ES,1619895546,47,66.0,37.4063,-1.5829,8.5
10,new norfolk,100,AU,1619895546,62,54.0,-42.7826,147.0587,2.86
11,general salgado,100,BR,1619895547,32,86.76,-20.6483,-50.3606,5.48
12,deniliquin,83,AU,1619895547,57,59.32,-35.5333,144.9667,7.63
13,rikitea,98,PF,1619895255,80,76.21,-23.1203,-134.9692,12.91
14,tasiilaq,90,GL,1619895547,93,26.6,65.6145,-37.6368,3.44
15,reutte,100,AT,1619895547,95,44.01,47.4833,10.7167,3.0
16,ati,18,TD,1619895548,13,94.33,13.2154,18.3353,7.96
17,torbay,75,CA,1619895331,67,55.4,47.6666,-52.7314,29.93
18,tanout,0,NE,1619895548,4,89.98,14.9709,8.8879,11.07
19,palmer,20,US,1619895548,41,57.99,42.1584,-72.3287,12.66
20,mahebourg,20,MU,1619895490,94,73.4,-20.4081,57.7,4.61
21,hobart,100,AU,1619895549,62,57.2,-42.8794,147.3294,9.22
22,bastia,75,FR,1619895549,94,60.8,42.6667,9.3333,3.44
23,mildura,12,AU,1619895549,48,60.8,-34.2,142.15,10.36
24,barrow,90,US,1619895274,86,21.2,71.2906,-156.7887,10.36
25,oriximina,78,BR,1619895550,79,82.15,-1.7656,-55.8661,3.11
26,ternate,90,ID,1619895550,77,80.44,0.8,127.4,0.69
27,honiara,100,SB,1619895550,86,76.55,-9.4333,159.95,3.67
28,thompson,90,CA,1619895550,86,21.2,55.7435,-97.8558,9.22
29,alibag,100,IN,1619895551,79,86.0,18.6411,72.8792,5.75
30,castro,91,BR,1619895448,68,68.52,-24.7911,-50.0119,2.08
31,evensk,6,RU,1619895551,84,19.71,61.95,159.2333,8.61
32,kapaa,20,US,1619895551,78,77.0,22.0752,-159.319,11.5
33,bluff,15,NZ,1619895552,86,48.0,-46.6,168.3333,3.0
34,hami,100,CN,1619895552,34,63.82,42.8,93.45,30.69
35,hilo,40,US,1619895364,65,77.0,19.7297,-155.09,3.44
36,khurai,100,IN,1619895552,26,88.92,24.0436,78.3319,14.67
37,veraval,57,IN,1619895553,82,81.61,20.9,70.3667,9.17
38,atuona,0,PF,1619895553,73,78.66,-9.8,-139.0333,9.46
39,gigmoto,62,PH,1619895553,81,77.74,13.7796,124.39,4.16
40,hobyo,100,SO,1619895553,64,85.14,5.3505,48.5268,13.09
41,avarua,75,CK,1619895526,78,78.8,-21.2078,-159.775,9.22
42,santa catarina de tepehuanes,0,MX,1619895554,12,75.31,25.35,-105.7333,9.93
43,penzance,20,GB,1619895554,57,50.0,50.1186,-5.5371,11.61
44,cape town,0,ZA,1619895554,82,61.0,-33.9258,18.4232,8.05
45,najran,40,SA,1619895555,17,82.4,17.4924,44.1277,6.91
46,port alfred,0,ZA,1619895555,68,61.95,-33.5906,26.891,3.38
47,chuy,4,UY,1619895555,55,73.09,-33.6971,-53.4616,5.39
48,sao filipe,1,CV,1619895555,74,72.79,14.8961,-24.4956,11.88
49,two hills,100,CA,1619895556,38,55.4,53.7169,-111.7518,18.41
50,fuling,100,CN,1619895556,68,75.16,29.7022,107.3919,4.5
51,bambous virieux,20,MU,1619895556,94,75.0,-20.3428,57.7575,4.61
52,batemans bay,100,AU,1619895557,97,55.0,-35.7167,150.1833,4.0
53,brae,75,GB,1619895557,75,42.8,60.3964,-1.353,10.36
54,katsuura,0,JP,1619895557,78,64.0,35.1333,140.3,15.99
55,kahului,20,US,1619895398,73,75.2,20.8947,-156.47,13.8
56,svetlyy,0,RU,1619895557,65,44.6,54.675,20.1347,8.95
57,jacareacanga,100,BR,1619895558,75,82.06,-6.2222,-57.7528,2.59
58,moose factory,90,CA,1619895558,93,37.4,51.2585,-80.6094,9.22
59,punta arenas,20,CL,1619895558,66,46.4,-53.15,-70.9167,8.05
60,ivanovskoye,0,RU,1619895558,67,59.0,44.5795,41.8764,0.58
61,ilulissat,1,GL,1619895559,34,46.4,69.2167,-51.1,10.36
62,kedrovyy,0,RU,1619895559,69,33.8,56.1667,91.8167,4.47
63,georgetown,40,MY,1619895367,89,78.8,5.4112,100.3354,4.61
64,pandan,66,PH,1619895559,83,76.82,14.0453,124.1694,5.61
65,qaanaaq,76,GL,1619895560,71,34.93,77.484,-69.3632,3.47
66,busselton,14,AU,1619895560,96,55.99,-33.65,115.3333,3.15
67,agutaya,13,PH,1619895560,75,83.82,11.148,120.9417,17.49
68,vila franca do campo,75,PT,1619895561,88,60.8,37.7167,-25.4333,10.36
69,san cristobal,40,VE,1619895561,65,84.2,7.7669,-72.225,8.05
70,saint-philippe,0,RE,1619895561,78,75.2,-21.3585,55.7679,5.75
71,kodiak,1,US,1619895313,81,39.2,57.79,-152.4072,4.61
72,ust-nera,99,RU,1619895561,97,26.83,64.5667,143.2,2.17
73,saravan,90,AM,1619895562,82,55.4,39.7196,45.6483,6.91
74,bethel,1,US,1619895562,38,61.0,41.3712,-73.414,10.36
75,pantai remis,40,MY,1619895562,94,77.0,4.4557,100.6288,4.25
76,mataura,5,NZ,1619895562,86,48.0,-46.1927,168.8643,3.0
77,tuktoyaktuk,90,CA,1619895563,92,14.0,69.4541,-133.0374,8.05
78,arraial do cabo,75,BR,1619895528,73,73.4,-22.9661,-42.0278,6.91
79,ahipara,0,NZ,1619895563,78,54.27,-35.1667,173.1667,7.45
80,klaksvik,20,FO,1619895563,87,37.4,62.2266,-6.589,1.14
81,kalabo,14,ZM,1619895564,76,68.86,-14.97,22.6814,4.88
82,pisco,0,PE,1619895564,73,71.6,-13.7,-76.2167,9.22
83,padang,79,ID,1619895564,85,78.19,-0.9492,100.3543,4.07
84,yellowknife,20,CA,1619895471,63,28.99,62.456,-114.3525,10.36
85,banfora,43,BF,1619895565,33,92.37,10.6333,-4.7667,3.4
86,gobabis,0,NA,1619895565,29,64.58,-22.45,18.9667,12.44
87,geraldton,100,AU,1619895565,58,55.4,-28.7667,114.6,9.22
88,faanui,11,PF,1619895565,68,80.62,-16.4833,-151.75,3.44
89,sal rei,75,CV,1619895566,64,75.2,16.1833,-22.9167,20.71
90,lasa,75,IT,1619895566,100,55.0,46.6166,10.7002,10.36
91,hofn,100,IS,1619895566,67,38.14,64.2539,-15.2082,17.05
92,griffith,1,US,1619895567,37,73.0,41.5284,-87.4237,26.46
93,hermanus,98,ZA,1619895567,76,59.0,-34.4187,19.2345,9.95
94,monrovia,20,LR,1619895567,74,84.2,6.3005,-10.7969,8.05
95,kalanwali,12,IN,1619895567,23,88.09,29.85,74.95,1.92
96,tutoia,40,BR,1619895568,94,78.8,-2.7619,-42.2744,5.75
97,puerto ayora,40,EC,1619895405,65,82.4,-0.7393,-90.3518,20.71
98,paita,40,PE,1619895568,51,87.8,-5.0892,-81.1144,16.11
99,pangnirtung,75,CA,1619895513,57,44.6,66.1451,-65.7125,9.22
100,dikson,100,RU,1619895568,92,23.45,73.5069,80.5464,5.21
101,jamestown,1,US,1619895468,32,60.01,42.097,-79.2353,8.05
102,rawson,100,AR,1619895569,42,67.28,-43.3002,-65.1023,19.24
103,arinos,100,BR,1619895569,55,77.94,-15.9169,-46.1056,5.91
104,lincoln,1,US,1619895491,20,84.2,40.8,-96.667,32.21
105,promyshlennovskiy,90,RU,1619895569,93,39.2,55.4833,86.2,8.95
106,amga,27,RU,1619895570,97,25.39,60.8953,131.9608,3.22
107,cherskiy,48,RU,1619895570,94,4.71,68.75,161.3,2.3
108,mahajanga,20,MG,1619895570,89,82.4,-15.7167,46.3167,5.75
109,taos,1,US,1619895570,19,71.01,36.4072,-105.5731,5.75
110,upernavik,15,GL,1619895571,76,33.12,72.7868,-56.1549,4.14
111,birao,29,CF,1619895571,28,87.87,10.2849,22.7882,5.39
112,murray bridge,0,AU,1619895571,90,57.0,-35.1167,139.2667,1.01
113,salihorsk,100,BY,1619895430,75,49.53,52.7876,27.5415,8.28
114,vestmannaeyjar,100,IS,1619895429,61,40.42,63.4427,-20.2734,13.98
115,khatanga,83,RU,1619895572,99,18.16,71.9667,102.5,2.28
116,alice springs,6,AU,1619895572,58,53.6,-23.7,133.8833,4.61
117,guarapari,40,BR,1619895572,65,78.8,-20.6667,-40.4975,11.5
118,volsk,100,RU,1619895573,82,54.12,52.0333,47.3833,5.46
119,nioki,100,CD,1619895573,98,70.63,-2.7167,17.6833,3.6
120,kavieng,46,PG,1619895573,76,81.52,-2.5744,150.7967,4.0
121,gogrial,100,SS,1619895573,39,86.11,8.5332,28.1004,5.46
122,chokurdakh,95,RU,1619895574,99,0.81,70.6333,147.9167,3.83
123,nikolskoye,20,RU,1619895574,60,41.0,59.7035,30.7861,6.71
124,labuhan,100,ID,1619895574,87,78.76,-6.8844,112.2051,7.4
125,minudasht,40,IR,1619895574,77,64.4,37.2289,55.3747,11.5
126,lufilufi,20,WS,1619895575,94,75.2,-13.8745,-171.5986,6.02
127,itarema,89,BR,1619895575,77,81.9,-2.9248,-39.9167,5.82
128,margate,44,GB,1619895575,67,46.99,51.3813,1.3862,1.99
129,kolokani,42,ML,1619895575,27,93.69,13.5728,-8.0339,9.1
130,kavaratti,11,IN,1619895576,71,85.51,10.5669,72.642,5.93
131,bridgend,64,GB,1619895576,74,50.0,51.5058,-3.5772,3.0
132,bengkulu,85,ID,1619895576,89,75.51,-3.8004,102.2655,4.52
133,bilibino,61,RU,1619895577,85,3.4,68.0546,166.4372,3.4
134,provideniya,25,RU,1619895577,60,23.4,64.3833,-173.3,5.48
135,besikduzu,40,TR,1619895395,100,57.2,41.052,39.2284,3.44
136,port hedland,90,AU,1619895577,100,71.6,-20.3167,118.5667,4.61
137,asau,100,RO,1619895578,54,61.0,46.4333,26.4,3.96
138,lahij,91,YE,1619895578,54,81.03,13.1667,44.5833,7.47
139,trapani,100,IT,1619895578,100,68.0,37.8333,12.6667,13.8
140,tuatapere,0,NZ,1619895578,86,48.0,-46.1333,167.6833,3.0
141,vaini,40,TO,1619895579,83,75.2,-21.2,-175.2,13.8
142,kangaatsiaq,20,GL,1619895579,73,34.21,68.3065,-53.4641,14.23
143,nanortalik,9,GL,1619895294,54,41.04,60.1432,-45.2371,12.68
144,grindavik,40,IS,1619895362,49,44.6,63.8424,-22.4338,12.66
145,ribeira grande,75,PT,1619895375,94,62.6,38.5167,-28.7,21.85
146,sitka,75,US,1619895580,76,44.6,57.0531,-135.33,3.44
147,hithadhoo,81,MV,1619895580,69,84.38,-0.6,73.0833,5.48
148,esperance,0,AU,1619895580,82,51.8,-33.8667,121.9,11.5
149,daru,37,PG,1619895580,86,77.7,-9.0763,143.2092,11.16
150,puerto escondido,40,MX,1619895581,70,86.0,15.85,-97.0667,14.97
151,sangar,100,RU,1619895581,97,35.46,63.9242,127.4739,7.72
152,salalah,20,OM,1619895581,84,84.2,17.0151,54.0924,4.61
153,kaitangata,0,NZ,1619895581,68,48.99,-46.2817,169.8464,8.01
154,lazaro cardenas,100,MX,1619895582,58,84.61,17.9583,-102.2,11.21
155,itoman,75,JP,1619895582,73,69.8,26.1247,127.6694,10.36
156,moree,61,AU,1619895582,76,55.4,-29.4667,149.85,6.91
157,shelburne,98,CA,1619895583,41,59.0,44.0787,-80.2041,18.14
158,bredasdorp,100,ZA,1619895583,93,50.0,-34.5322,20.0403,2.3
159,gilbues,100,BR,1619895583,61,80.87,-9.8317,-45.3439,4.14
160,mehamn,100,NO,1619895583,82,33.39,71.0357,27.8492,16.02
161,celestun,5,MX,1619895584,50,89.04,20.8667,-90.4,9.42
162,igarka,100,RU,1619895584,95,27.99,67.4667,86.5833,7.92
163,san patricio,90,US,1619895584,94,77.0,28.017,-97.5169,11.5
164,port elizabeth,0,ZA,1619895584,82,57.2,-33.918,25.5701,3.44
165,puerto carreno,77,CO,1619895585,48,90.34,6.189,-67.4859,1.54
166,latung,0,PH,1619895585,71,83.55,5.5,120.8833,4.12
167,enid,90,US,1619895376,88,69.01,36.3956,-97.8784,14.97
168,filadelfia,20,US,1619895539,27,66.0,39.9523,-75.1638,10.36
169,flinders,100,AU,1619895585,89,57.0,-34.5833,150.8552,1.99
170,sorong,94,ID,1619895586,83,79.23,-0.8833,131.25,6.22
171,malanje,98,AO,1619895586,95,65.03,-9.5402,16.341,7.16
172,praia da vitoria,75,PT,1619895586,94,60.01,38.7333,-27.0667,20.65
173,norman wells,20,CA,1619895586,48,41.0,65.282,-126.8329,5.75
174,pemba,75,MZ,1619895587,78,80.6,-12.974,40.5178,11.5
175,van buren,75,US,1619895587,50,75.2,35.4368,-94.3483,9.22
176,severo-yeniseyskiy,100,RU,1619895587,94,30.25,60.3725,93.0408,9.35
177,bose,100,IT,1619895588,97,54.0,45.4612,8.0137,3.49
178,baghdad,0,IQ,1619895509,24,80.6,33.3406,44.4009,3.44
179,panguna,29,PG,1619895588,94,67.5,-6.3164,155.4848,1.05
180,newark,20,US,1619895337,29,64.99,40.7357,-74.1724,24.16
181,severo-kurilsk,100,RU,1619895588,97,35.74,50.6789,156.125,22.84
182,paamiut,14,GL,1619895589,58,39.69,61.994,-49.6678,2.44
183,longyearbyen,20,SJ,1619895589,63,19.4,78.2186,15.6401,12.66
184,teya,100,RU,1619895589,93,33.78,60.3778,92.6267,8.32
185,alta floresta,40,BR,1619895589,52,91.4,-9.8756,-56.0861,5.75
186,karratha,6,AU,1619895590,59,79.47,-20.7377,116.8463,5.41
187,taoudenni,0,ML,1619895590,19,95.34,22.6783,-3.9836,3.83
188,isangel,75,VU,1619895590,83,77.0,-19.55,169.2667,5.75
189,mandurah,0,AU,1619895480,75,55.0,-32.55,115.7,6.93
190,solnechnyy,100,RU,1619895590,92,32.18,50.7214,136.6319,7.83
191,nerchinskiy zavod,100,RU,1619895591,57,41.41,51.3088,119.61,5.91
192,codrington,100,AU,1619895591,76,59.4,-38.2667,141.9667,10.09
193,coihaique,75,CL,1619895591,62,53.6,-45.5752,-72.0662,10.36
194,rodrigues alves,75,BR,1619895592,51,89.6,-7.738,-72.6509,3.44
195,auray,0,FR,1619895592,76,50.0,47.6703,-2.9918,2.3
196,soyo,100,AO,1619895592,82,78.06,-6.1349,12.3689,9.19
197,sapele,100,NG,1619895592,87,79.63,5.8941,5.6767,6.46
198,nabire,100,ID,1619895593,92,75.09,-3.3667,135.4833,3.44
199,antofagasta,0,CL,1619895593,72,71.01,-23.65,-70.4,14.97
200,tombouctou,10,ML,1619895593,22,92.61,20.0,-3.0,4.81
201,port lincoln,100,AU,1619895593,69,61.61,-34.7333,135.8667,13.78
202,quatre cocos,20,MU,1619895594,94,75.0,-20.2078,57.7625,4.61
203,cidreira,0,BR,1619895594,62,70.57,-30.1811,-50.2056,11.86
204,manado,40,ID,1619895594,100,75.2,1.487,124.8455,1.14
205,douglas,1,US,1619895561,19,86.0,41.3,-96.167,18.41
206,maneadero,100,MX,1619895595,74,69.01,31.7167,-116.5667,3.0
207,pevek,100,RU,1619895595,94,9.0,69.7008,170.3133,8.48
208,sena madureira,94,BR,1619895595,48,88.93,-9.0656,-68.6569,1.05
209,ballitoville,75,ZA,1619895595,82,64.99,-29.539,31.2144,6.91
210,cam ranh,20,VN,1619895596,83,78.8,11.9214,109.1591,4.61
211,isiro,98,CD,1619895596,98,68.56,2.7739,27.616,3.78
212,cradock,0,ZA,1619895596,49,54.91,-32.1642,25.6192,2.82
213,barreirinha,91,BR,1619895597,75,83.57,-2.7933,-57.07,1.95
214,sayyan,100,YE,1619895597,82,55.2,15.1718,44.3244,8.21
215,college,75,US,1619895597,51,35.01,64.8569,-147.8028,3.0
216,dunedin,5,NZ,1619895572,51,47.57,-45.8742,170.5036,6.91
217,mount isa,7,AU,1619895597,59,64.4,-20.7333,139.5,3.44
218,airai,83,TL,1619895495,87,56.08,-8.9266,125.4092,3.02
219,portland,90,US,1619895525,62,57.99,45.5234,-122.6762,8.05
220,souillac,20,MU,1619895598,94,73.4,-20.5167,57.5167,4.61
221,kuhdasht,0,IR,1619895598,30,62.8,33.535,47.6061,8.43
222,kudahuvadhoo,25,MV,1619895598,66,83.52,2.6708,72.8944,3.85
223,vostok,11,RU,1619895599,91,29.41,46.4856,135.8833,2.21
224,east london,0,ZA,1619895599,88,57.2,-33.0153,27.9116,6.91
225,usinsk,100,RU,1619895599,97,35.47,65.9939,57.5281,20.11
226,dingzhou,0,CN,1619895437,57,46.4,38.5131,114.9956,4.72
227,moerai,36,PF,1619895600,63,74.91,-22.4333,-151.3333,14.43
228,florianopolis,75,BR,1619895600,57,77.0,-27.6146,-48.5012,11.5
229,lorengau,96,PG,1619895600,82,79.5,-2.0226,147.2712,1.48
230,korostyshiv,89,UA,1619895601,95,53.94,50.3172,29.0563,5.23
231,lebu,100,CL,1619895601,93,54.97,-37.6167,-73.65,12.33
232,ngaoundere,100,CM,1619895602,60,74.59,7.3167,13.5833,3.13
233,umm kaddadah,99,SD,1619895602,13,87.13,13.6017,26.6876,9.01
234,ndioum,0,SN,1619895603,16,102.2,16.5129,-14.6471,4.61
235,indramayu,93,ID,1619895430,80,80.92,-6.3264,108.32,7.16
236,hasaki,20,JP,1619895603,94,61.0,35.7333,140.8333,9.22
237,guerrero negro,12,MX,1619895604,50,75.0,27.9769,-114.0611,12.84
238,yeniseysk,98,RU,1619895604,91,35.76,58.4497,92.1703,2.59
239,boddam,75,GB,1619895391,76,44.6,57.4667,-1.7833,3.44
240,tias,40,ES,1619895429,49,71.6,28.9611,-13.645,16.11
241,apateu,0,RO,1619895605,73,73.4,46.6167,21.7833,5.75
242,lavrentiya,19,RU,1619895606,79,16.56,65.5833,-171.0,3.33
243,ponta delgada,75,PT,1619895607,88,60.8,37.7333,-25.6667,10.36
244,necochea,72,AR,1619895608,51,73.0,-38.5473,-58.7368,5.01
245,tezu,99,IN,1619895519,83,70.09,27.9167,96.1667,4.38
246,balabac,65,PH,1619895610,79,82.18,7.9868,117.0645,9.33
247,bam,100,IR,1619895611,55,69.06,29.106,58.357,1.01
248,broome,1,US,1619895611,40,55.99,42.2506,-75.833,9.22
249,cove,47,BJ,1619895612,69,83.28,7.221,2.3402,10.0
250,mucuri,69,BR,1619895612,64,77.38,-18.0864,-39.5508,13.73
251,el tigre,100,VE,1619895613,42,87.58,8.8875,-64.2454,9.53
252,kholodnyy,100,RU,1619895613,96,27.14,62.7167,147.95,1.16
253,victoria,95,HK,1619895492,85,79.0,22.2855,114.1577,3.42
254,vila velha,40,BR,1619895478,65,78.8,-20.3297,-40.2925,11.5
255,kemijarvi,55,FI,1619895614,88,26.4,66.7131,27.4306,6.93
256,vardo,100,NO,1619895614,79,33.73,70.3705,31.1107,14.38
257,nelson bay,100,AU,1619895614,100,55.99,-32.7167,152.15,7.83
258,zhigansk,100,RU,1619895615,98,28.06,66.7697,123.3711,8.19
259,saskylakh,100,RU,1619895615,97,29.98,71.9167,114.0833,2.33
260,leshukonskoye,7,RU,1619895616,71,28.9,64.8989,45.7622,8.9
261,novaya igirma,100,RU,1619895616,97,29.25,57.1334,103.9112,2.82
262,kisangani,100,CD,1619895617,98,69.49,0.5167,25.2,0.87
263,anloga,20,GH,1619895617,84,84.2,5.7947,0.8973,13.8
264,saldanha,0,ZA,1619895618,55,60.8,-33.0117,17.9442,5.75
265,yar-sale,100,RU,1619895618,93,21.6,66.8333,70.8333,12.39
266,aklavik,90,CA,1619895619,80,23.0,68.2191,-135.0107,10.36
267,ca mau,8,VN,1619895619,82,79.84,9.1769,105.15,5.17
268,riyadh,0,SA,1619895603,12,89.6,24.6877,46.7219,6.91
269,pangody,100,RU,1619895619,90,27.43,65.85,74.4859,7.67
270,constitucion,100,CL,1619895620,94,55.24,-35.3333,-72.4167,6.02
271,arandis,0,NA,1619895620,87,62.01,-22.4167,14.9667,3.0
272,stornoway,40,GB,1619895621,61,46.4,58.2093,-6.3865,9.22
273,rio gallegos,0,AR,1619895622,70,44.6,-51.6226,-69.2181,3.44
274,coahuayana,20,MX,1619895622,50,80.6,18.7333,-103.6833,8.46
275,chase,91,CA,1619895622,41,59.0,50.8165,-119.6857,2.3
276,morozovsk,27,RU,1619895623,84,58.05,48.3539,41.8261,7.11
277,leningradskiy,100,RU,1619895507,87,15.12,69.3833,178.4167,21.14
278,north bend,90,US,1619895563,71,55.0,43.4065,-124.2243,12.66
279,tabory,100,RU,1619895624,46,56.07,58.5198,64.5495,14.07
280,kaa-khem,100,RU,1619895624,86,39.58,51.6833,94.7333,3.36
281,aksu,100,CN,1619895570,23,71.65,41.1231,80.2644,1.16
282,teguldet,24,RU,1619895625,92,36.05,57.3064,88.1667,6.26
283,nome,90,US,1619895484,74,23.0,64.5011,-165.4064,11.5
284,ponta do sol,57,PT,1619895625,79,63.0,32.6667,-17.1,3.78
285,hirara,99,JP,1619895626,79,74.88,24.8,125.2833,6.91
286,los llanos de aridane,75,ES,1619895626,60,69.8,28.6585,-17.9182,12.66
287,arman,90,RU,1619895626,91,30.29,59.7,150.1667,3.69
288,narsaq,6,GL,1619895627,22,50.0,60.9167,-46.05,34.52
289,accra,100,GH,1619895488,76,83.97,5.556,-0.1969,14.41
290,tecoanapa,78,MX,1619895627,57,87.3,16.5167,-98.75,12.91
291,freistadt,40,AT,1619895628,63,60.8,48.511,14.5045,12.66
292,lienz,100,AT,1619895628,96,55.0,46.8289,12.769,3.27
293,yuanping,6,CN,1619895629,27,47.21,38.7153,112.7575,2.8
294,mendi,100,PG,1619895629,96,52.75,-6.1761,143.6513,2.89
295,fonte boa,40,BR,1619895630,71,81.37,-2.4959,-66.2662,6.22
296,coquimbo,0,CL,1619895630,48,66.2,-29.9533,-71.3436,11.5
297,anshun,94,CN,1619895631,88,64.0,26.25,105.9333,11.77
298,adrar,21,MR,1619895573,19,90.75,20.5022,-10.0711,14.58
299,gushikawa,20,JP,1619895631,88,68.0,26.3544,127.8686,5.75
300,liku,60,ID,1619895632,92,73.98,-0.7275,119.8922,3.58
301,skala fourkas,74,GR,1619895632,100,69.01,39.9998,23.3841,4.54
302,srednekolymsk,6,RU,1619895633,92,12.38,67.45,153.6833,6.02
303,bonavista,46,CA,1619895633,87,46.4,48.6499,-53.1147,10.36
304,mezen,100,RU,1619895634,75,28.87,65.8522,44.24,11.48
305,kosh-agach,100,RU,1619895634,75,25.97,50.0,88.6667,3.8
306,mandalgovi,98,MN,1619895635,30,45.54,45.7625,106.2708,18.57
307,tagusao,17,PH,1619895635,81,79.86,9.1924,117.8141,3.85
308,berbera,91,SO,1619895636,69,86.43,10.4396,45.0143,10.22
309,ariogala,0,LT,1619895636,46,46.4,55.2667,23.4667,5.75
310,akyab,0,MM,1619895398,76,81.16,20.15,92.9,5.44
311,miri,40,MY,1619895637,88,77.0,4.4148,114.0089,6.91
312,bay roberts,100,CA,1619895638,77,54.0,47.5999,-53.2648,7.0
313,novopavlovka,100,RU,1619895638,96,40.91,51.2172,109.2091,3.44
314,grand gaube,3,MU,1619895639,88,75.0,-20.0064,57.6608,3.0
315,morro bay,91,US,1619895639,44,73.99,35.3658,-120.8499,4.0
316,petropavlivka,100,UA,1619895640,73,62.06,48.4564,36.4367,5.41
317,hamilton,1,US,1619895423,34,69.01,39.1834,-84.5333,13.8
318,hukuntsi,0,BW,1619895640,31,61.03,-24.0,21.75,10.22
319,berlevag,100,NO,1619895640,86,33.26,70.8578,29.0864,21.77
320,carnarvon,100,AU,1619895641,73,68.0,-24.8667,113.6333,9.22
321,ixtapa,1,MX,1619895641,65,82.4,20.7,-105.2,9.22
322,juba,85,SS,1619895642,71,77.02,4.8517,31.5825,2.46
323,alofi,4,NU,1619895632,100,73.4,-19.0595,-169.9187,1.14
324,devrek,91,TR,1619895642,76,66.0,41.2192,31.9558,5.53
325,pribinic,20,BA,1619895643,52,69.8,44.6106,17.6906,3.44
326,sao joao da barra,20,BR,1619895643,73,75.2,-21.6403,-41.0511,6.91
327,arawa,26,PG,1619895644,88,75.87,-6.2132,155.5367,2.89
328,maturin,78,VE,1619895644,47,89.53,9.75,-63.1767,9.89
329,tiksi,100,RU,1619895645,99,19.24,71.6872,128.8694,2.06
330,manakara,8,MG,1619895645,92,74.64,-22.1333,48.0167,7.16
331,tura,14,IN,1619895646,71,71.73,25.5198,90.2201,4.72
332,langub,36,PH,1619895646,78,80.06,10.7981,123.5372,4.09
333,northam,7,GB,1619895647,75,48.99,51.0333,-4.2167,1.99
334,issenye,10,TZ,1619895647,89,65.82,-2.0,34.3333,1.59
335,riberalta,40,BO,1619895648,62,87.8,-10.9833,-66.1,5.75
336,bodden town,40,KY,1619895648,74,86.0,19.2833,-81.25,5.75
337,baglan,100,AF,1619895649,62,72.59,36.1307,68.7083,1.5
338,matara,66,LK,1619895500,86,78.67,5.9485,80.5353,2.62
339,devils lake,1,US,1619895505,27,73.99,48.1128,-98.8651,14.97
340,wiwili,40,NI,1619895649,47,82.4,13.6268,-85.8254,6.33
341,ust-maya,40,RU,1619895650,91,28.98,60.4167,134.5333,5.12
342,vanimo,100,PG,1619895650,88,77.05,-2.6741,141.3028,3.6
343,robertsport,61,LR,1619895651,81,82.99,6.7533,-11.3686,12.97
344,porangatu,100,BR,1619895651,52,84.06,-13.4408,-49.1486,6.11
345,khorixas,46,NA,1619895652,29,75.94,-20.3667,14.9667,5.95
346,la ronge,62,CA,1619895652,58,51.8,55.1001,-105.2842,9.22
347,lumeje,100,AO,1619895653,93,66.38,-11.55,20.7833,3.2
348,colesberg,0,ZA,1619895653,58,52.38,-30.72,25.0972,8.81
349,warrnambool,100,AU,1619895654,62,64.0,-38.3833,142.4833,5.99
350,moron,0,AR,1619895399,41,78.8,-34.6534,-58.6198,10.36
351,teeli,100,RU,1619895654,69,38.03,51.0333,90.2333,2.51
352,waddan,22,LY,1619895655,6,91.96,29.1614,16.139,13.78
353,luau,100,AO,1619895655,91,67.21,-10.7073,22.2247,2.71
354,port hardy,75,CA,1619895656,76,50.0,50.6996,-127.4199,5.75
355,comodoro rivadavia,40,AR,1619895656,28,68.0,-45.8667,-67.5,23.02
356,mackenzie,75,CA,1619895656,53,48.2,55.2999,-123.1698,4.61
357,russell,1,US,1619895453,29,80.6,32.3502,-85.1999,4.61
358,yulara,28,AU,1619895657,44,57.2,-25.2406,130.9889,8.05
359,soure,14,BR,1619895658,74,81.77,-0.7167,-48.5233,2.1
360,kahone,0,SN,1619895659,45,86.0,14.15,-16.0333,9.22
361,san lorenzo,0,PY,1619895635,51,82.4,-25.3333,-57.5333,3.44
362,springfield,77,US,1619895560,37,79.0,37.2153,-93.2982,7.0
363,havre-saint-pierre,90,CA,1619895659,46,51.8,50.2334,-63.5986,10.36
364,zelenets,75,RU,1619895660,87,37.4,61.8849,50.7489,4.47
365,porto novo,40,BJ,1619895660,79,86.0,6.4965,2.6036,14.97
366,watertown,1,US,1619895414,39,63.0,42.3709,-71.1828,17.27
367,jaicos,89,BR,1619895661,29,92.64,-7.3592,-41.1378,9.84
368,taltal,51,CL,1619895661,70,67.01,-25.4,-70.4833,6.29
369,saint george,1,US,1619895647,12,89.01,37.1041,-113.5841,3.44
370,brzeg dolny,75,PL,1619895662,71,51.8,51.273,16.7082,8.05
371,malanville,38,BJ,1619895662,15,99.63,11.8685,3.3899,7.16
372,pilar,40,BR,1619895653,69,80.6,-9.5972,-35.9567,10.36
373,lighthouse point,1,US,1619895663,48,93.2,26.2756,-80.0873,3.44
374,viransehir,0,TR,1619895663,31,67.06,37.2353,39.7631,13.22
375,aragarcas,75,BR,1619895664,74,80.6,-15.8975,-52.2508,2.3
376,xichang,100,CN,1619895664,77,60.71,27.8964,102.2634,2.3
377,bocas del toro,100,PA,1619895665,97,66.0,9.3333,-82.25,7.2
378,kuybyshevo,98,RU,1619895665,78,59.45,47.8123,38.9073,4.23
379,caluquembe,100,AO,1619895666,87,61.86,-13.7833,14.6833,0.6
380,kaoma,23,ZM,1619895666,89,63.84,-14.7833,24.8,2.08
381,qui nhon,7,VN,1619895598,88,76.84,13.7667,109.2333,4.29
382,siderno,100,IT,1619895666,40,68.0,38.2779,16.302,3.0
383,batatais,0,BR,1619895657,41,80.6,-20.8911,-47.585,5.75
384,port blair,100,IN,1619895667,75,82.98,11.6667,92.75,4.41
385,dawei,78,MM,1619895667,86,77.0,14.0833,98.2,2.55
386,mecca,100,SA,1619895667,41,87.62,21.4267,39.8261,5.03
387,abu samrah,0,SY,1619895667,40,71.83,35.3029,37.1841,11.23
388,lompoc,40,US,1619895401,82,61.0,34.6391,-120.4579,10.36
389,zhucheng,0,CN,1619895668,60,45.54,35.9947,119.3975,5.08
390,luderitz,0,NA,1619895668,40,69.17,-26.6481,15.1594,4.45
391,ostrovnoy,100,RU,1619895668,77,25.93,68.0531,39.5131,14.61
392,qaqortoq,12,GL,1619895669,22,50.0,60.7167,-46.0333,34.52
393,luba,56,GQ,1619895669,81,82.31,3.4568,8.5547,6.44
394,kaspiyskiy,100,RU,1619895669,70,61.5,45.3929,47.3707,8.46
395,lukovetskiy,40,RU,1619895670,64,32.0,64.2956,41.9211,8.95
396,santa comba,3,ES,1619895670,51,57.0,43.0331,-8.8093,4.0
397,banda aceh,62,ID,1619895670,78,80.69,5.5577,95.3222,7.83
398,goderich,100,CA,1619895609,43,50.0,43.7501,-81.7165,16.11
399,kodinsk,14,RU,1619895671,97,28.44,58.6881,99.1844,2.98
400,bassano del grappa,100,IT,1619895671,86,62.01,45.7676,11.7357,4.59
401,lander,1,US,1619895421,32,66.2,42.833,-108.7307,19.57
402,estancia,75,BR,1619895671,88,77.0,-11.2683,-37.4383,9.22
403,gorontalo,90,ID,1619895671,94,74.62,0.5412,123.0595,2.35
404,rosetta,0,EG,1619895672,22,75.2,31.4044,30.4164,5.75
405,lethem,64,GY,1619895672,56,88.2,3.3803,-59.7968,6.2
406,kamina,100,CD,1619895672,96,66.02,-8.7386,24.9906,1.28
407,santa rosa,75,PH,1619895673,74,82.4,14.3122,121.1114,6.91
408,shingu,18,JP,1619895673,68,53.51,33.7333,135.9833,13.56
409,nouadhibou,5,MR,1619895673,68,71.6,20.931,-17.0347,21.85
410,namibe,2,AO,1619895673,75,76.35,-15.1961,12.1522,3.69
411,labuan,20,MY,1619895674,100,77.0,5.2767,115.2417,5.61
412,finschhafen,14,PG,1619895674,80,78.55,-6.6024,147.8681,3.98
413,barabai,100,ID,1619895674,93,73.0,-2.5833,115.3833,2.37
414,warmbad,0,NA,1619895675,25,64.31,-28.45,18.7333,11.5
415,paraiso,75,CR,1619895675,50,82.4,9.8383,-83.8656,6.91
416,pokosnoye,100,RU,1619895675,91,33.17,55.5258,101.0536,3.09
417,gornopravdinsk,100,RU,1619895676,43,43.23,60.05,69.9,14.05
418,mariental,0,NA,1619895676,21,65.84,-24.6333,17.9667,13.09
419,jonesboro,1,US,1619895676,44,77.0,35.8423,-90.7043,13.8
420,puma,100,TZ,1619895677,89,62.2,-5.0,34.7333,6.76
421,cap malheureux,2,MU,1619895677,88,75.0,-19.9842,57.6142,3.0
422,wonthaggi,100,AU,1619895677,72,62.01,-38.6044,145.5913,1.01
423,manokwari,100,ID,1619895677,81,78.42,-0.8667,134.0833,4.47
424,pocone,97,BR,1619895678,36,92.84,-16.2567,-56.6228,3.58
425,nong bua,20,TH,1619895678,73,82.18,15.8646,100.5858,3.06
426,mulchen,90,CL,1619895678,87,53.6,-37.7167,-72.2333,11.5
427,fortuna,75,US,1619895679,100,54.0,40.5982,-124.1573,14.97
428,pechora,100,RU,1619895679,87,36.03,65.1472,57.2244,13.49
429,faya,20,SA,1619895679,26,68.0,18.3851,42.4509,4.92
430,gamba,100,GA,1619895679,91,78.04,-2.65,10.0,7.14
431,colac,61,AU,1619895680,78,61.0,-38.3333,143.5833,4.81
432,nhulunbuy,40,AU,1619895680,88,75.2,-12.2333,136.7667,3.44
433,beringovskiy,97,RU,1619895680,87,20.21,63.05,179.3167,12.64
434,krasnyy chikoy,100,RU,1619895680,96,38.77,50.3643,108.7512,3.89
435,avera,1,US,1619895681,31,78.8,33.194,-82.5271,5.75
436,aduturai,16,IN,1619895681,74,83.01,11.0147,79.4791,2.91
437,shimoda,14,JP,1619895681,85,63.0,34.6667,138.95,1.01
438,ulladulla,100,AU,1619895682,100,53.6,-35.35,150.4667,4.88
439,inhambane,40,MZ,1619895682,88,69.8,-23.865,35.3833,6.91
440,bud,1,US,1619895682,32,70.0,39.447,-86.1758,8.05
441,noumea,90,NC,1619895604,83,75.99,-22.2763,166.4572,4.61
442,kamaishi,100,JP,1619895682,94,49.08,39.2667,141.8833,8.39
443,baruun-urt,83,MN,1619895669,30,43.54,46.6806,113.2792,15.37
444,bandarbeyla,98,SO,1619895683,72,84.51,9.4942,50.8122,10.71
445,mangai,100,CD,1619895683,98,70.72,-4.05,19.5333,2.55
446,buin,75,CL,1619895683,55,62.6,-33.7333,-70.75,4.61
447,todos santos,0,MX,1619895684,49,84.0,23.45,-110.2167,1.99
448,letlhakane,0,BW,1619895684,71,65.07,-21.4167,25.5833,14.25
449,sorland,100,NO,1619895684,64,36.82,67.667,12.6934,16.89
450,rocha,6,UY,1619895684,65,72.72,-34.4833,-54.3333,4.81
451,vao,100,NC,1619895685,74,74.3,-22.6667,167.4833,27.2
452,haines junction,99,CA,1619895685,52,41.0,60.7522,-137.5108,2.3
453,vilcun,90,CL,1619895685,82,57.2,-38.65,-72.2333,18.41
454,amahai,70,ID,1619895685,84,78.06,-3.3333,128.9167,1.77
455,grasse,75,FR,1619895686,100,55.4,43.6667,6.9167,5.39
456,esil,88,KZ,1619895686,48,50.9,51.9556,66.4042,10.25
457,mnogovershinnyy,100,RU,1619895686,97,26.49,53.9353,139.9242,5.5
458,haapiti,40,PF,1619895687,65,84.2,-17.5667,-149.8667,8.05
459,pailon,0,BO,1619895687,45,84.2,-17.65,-62.75,17.27
460,camalu,93,MX,1619895687,26,75.99,30.85,-116.0667,8.01
461,kloulklubed,90,PW,1619895687,89,78.8,7.0419,134.2556,9.22
462,jinchang,100,CN,1619895688,15,66.63,38.4953,102.1739,6.89
463,tukrah,0,LY,1619895688,23,84.65,32.5341,20.5791,4.97
464,vieira de leiria,20,PT,1619895688,54,57.2,39.8695,-8.9324,13.8
465,kimbe,98,PG,1619895689,92,74.44,-5.5502,150.1429,3.83
466,meulaboh,72,ID,1619895689,88,78.17,4.1363,96.1285,3.44
467,sain alto,0,MX,1619895689,9,76.5,23.5833,-103.25,18.52
468,macau,0,MO,1619895689,88,77.0,22.2006,113.5461,2.3
469,wanning,14,CN,1619895690,88,77.9,18.8003,110.3967,5.64
470,pochutla,75,MX,1619895690,58,93.0,15.7432,-96.4661,17.27
471,uzunovo,23,RU,1619895690,79,41.61,54.5386,38.6173,6.29
472,makakilo city,40,US,1619895690,78,78.8,21.3469,-158.0858,5.75
473,barreirinhas,88,BR,1619895691,75,82.85,-2.7469,-42.8264,2.8
474,cochrane,75,CA,1619895691,50,50.0,51.1834,-114.4687,9.22
475,garowe,92,SO,1619895691,58,83.44,8.4054,48.4845,6.42
476,poya,87,NC,1619895692,85,70.03,-21.35,165.15,5.5
477,uglovskoye,10,RU,1619895692,42,40.8,51.3557,80.1942,8.95
478,lagoa,100,PT,1619895692,88,59.49,39.05,-27.9833,23.11
479,smithers,75,CA,1619895501,57,48.2,54.7804,-127.1743,4.61
480,barahona,40,DO,1619895693,66,86.0,18.2085,-71.1008,13.8
481,sagua la grande,40,CU,1619895494,29,91.4,22.8067,-80.0756,5.75
482,krasnoselkup,27,RU,1619895693,95,25.79,65.7,82.4667,8.16
483,naze,0,JP,1619895693,62,61.05,28.3667,129.4833,10.02
484,lodja,100,CD,1619895693,88,71.53,-3.4833,23.4333,1.88
485,post falls,1,US,1619895694,39,64.0,47.718,-116.9516,13.8
486,sitio novo do tocantins,40,BR,1619895694,74,86.0,-5.5183,-47.4611,3.44
487,zeya,100,RU,1619895694,74,37.8,53.75,127.2667,1.88
488,hargeysa,63,SO,1619895695,70,71.28,9.56,44.065,7.67
489,rajpipla,69,IN,1619895695,31,88.43,21.8667,73.5,3.76
490,bansud,37,PH,1619895695,74,76.68,12.865,121.4564,4.88
491,namatanai,36,PG,1619895695,81,78.67,-3.6667,152.4333,2.62
492,myitkyina,100,MM,1619895696,96,68.47,25.3833,97.4,1.88
493,phan thiet,21,VN,1619895696,84,78.21,10.9333,108.1,7.14
494,mazatlan,1,MX,1619895617,44,82.99,23.2167,-106.4167,3.44
495,caxito,20,AO,1619895696,83,78.8,-8.5785,13.6643,4.61
496,banes,40,CU,1619895697,33,91.4,20.9625,-75.7186,4.61
497,isla vista,1,US,1619895697,77,64.4,34.4133,-119.861,8.05
498,qasigiannguit,1,GL,1619895697,34,46.4,68.8193,-51.1922,10.36
499,poum,100,NC,1619895697,75,75.52,-20.2333,164.0167,8.79
500,san ramon de la nueva oran,0,AR,1619895698,51,82.99,-23.1322,-64.326,1.99
501,mahina,40,PF,1619895698,65,84.2,-17.5065,-149.489,8.05
502,eyl,87,SO,1619895550,69,84.47,7.9803,49.8164,9.75
503,dillon,1,US,1619895698,13,80.01,34.4166,-79.3712,2.68
504,alihe,4,CN,1619895699,82,36.61,50.5667,123.7167,1.88
505,wakkanai,100,JP,1619895699,89,37.81,45.4094,141.6739,18.01
506,huanren,12,CN,1619895699,94,38.03,41.2647,125.3667,3.02
507,auchel,0,FR,1619895699,53,50.0,50.5034,2.4735,10.36
508,pacific grove,90,US,1619895700,77,60.01,36.6177,-121.9166,11.5
509,husavik,75,IS,1619895433,69,35.6,66.0449,-17.3389,14.97
510,shenjiamen,33,CN,1619895700,87,58.86,29.9576,122.298,5.99
511,keffi,20,NG,1619895700,52,93.2,8.8486,7.8736,2.3
512,renukut,99,IN,1619895701,18,85.26,24.2,83.0333,4.41
513,shar,1,KZ,1619895701,40,40.03,49.5886,81.0453,7.52
514,ust-kuyga,87,RU,1619895701,85,26.31,70.0167,135.6,4.99
515,kars,75,TR,1619895701,87,44.6,40.602,43.095,4.61
516,ferrol,20,ES,1619895702,54,55.4,43.4832,-8.2369,9.22
517,emba,57,KZ,1619895702,33,54.91,48.8264,58.1442,9.55
518,yingcheng,0,CN,1619895702,64,71.6,30.95,113.55,11.18
519,shebekino,0,RU,1619895703,47,59.0,50.4097,36.9136,6.71
520,dandeli,26,IN,1619895703,74,77.54,15.2667,74.6167,5.35
521,uige,100,AO,1619895703,97,65.12,-7.6087,15.0613,4.21
522,kutum,66,SD,1619895703,12,82.96,14.2,24.6667,8.59
523,cicero dantas,96,BR,1619895704,63,77.29,-10.6,-38.3833,15.52
524,yerofey pavlovich,100,RU,1619895704,84,36.28,53.9667,121.9667,2.37
525,prince albert,75,CA,1619895417,32,64.4,53.2001,-105.7677,5.75
526,maumere,100,ID,1619895704,79,79.0,-8.6199,122.2111,2.35
527,lolodorf,100,CM,1619895705,99,73.08,3.2333,10.7333,3.76
528,kostino,100,RU,1619895705,88,41.27,58.9097,53.2691,4.36
529,fairbanks,90,US,1619895705,51,37.0,64.8378,-147.7164,4.61
530,imamoglu,0,TR,1619895705,83,69.8,37.2651,35.6572,8.05
531,mbandaka,30,CD,1619895706,94,72.7,0.0487,18.2603,2.95
532,oulainen,8,FI,1619895706,54,30.0,64.2667,24.8,3.0
533,talnakh,54,RU,1619895692,89,12.65,69.4865,88.3972,1.05
534,sinnamary,66,GF,1619895706,85,80.2,5.3833,-52.95,10.49
535,amapa,100,BR,1619895706,97,75.06,1.0,-52.0,3.65
536,qitaihe,13,CN,1619895707,62,41.99,45.8,130.85,3.24
537,komsomolskiy,75,UZ,1619895707,72,64.4,40.4272,71.7189,4.61
538,saint-raymond,45,CA,1619895707,34,48.99,45.467,-73.6095,4.61
539,kambove,100,CD,1619895708,94,63.63,-10.8764,26.5969,2.37
540,bambanglipuro,88,ID,1619895708,86,76.89,-7.95,110.2833,4.54
541,huron,77,US,1619895708,46,62.01,41.1501,-82.5499,7.0
542,nampula,40,MZ,1619895709,83,77.0,-15.1165,39.2666,8.05
543,luwuk,96,ID,1619895709,88,77.47,-0.9516,122.7875,3.65
544,stephenville,90,US,1619895709,83,68.0,32.2207,-98.2023,4.61
545,breclav,0,CZ,1619895709,62,64.4,48.759,16.882,16.11
546,tsiroanomandidy,95,MG,1619895710,85,67.24,-18.7667,46.0333,1.57
547,algiers,20,DZ,1619895707,67,62.6,36.7525,3.042,6.91
548,shaoguan,97,CN,1619895710,81,70.9,24.8,113.5833,0.4
549,atambua,100,ID,1619895710,86,70.61,-9.1061,124.8925,5.01
550,luganville,99,VU,1619895710,86,76.55,-15.5333,167.1667,5.32
551,pafos,0,CY,1619895678,64,69.8,34.7667,32.4167,1.14
552,athabasca,100,CA,1619895711,43,55.4,54.7169,-113.2854,8.05
553,xining,10,CN,1619895711,41,52.39,36.6167,101.7667,2.44
554,vanavara,12,RU,1619895711,96,28.47,60.34,102.2797,3.94
555,gunjur,0,GM,1619895712,65,77.0,13.2019,-16.7339,10.36
556,iqaluit,90,CA,1619895712,70,39.2,63.7506,-68.5145,18.41
557,romitan,0,UZ,1619895712,49,69.8,39.9343,64.3814,6.91
558,nyurba,100,RU,1619895712,99,33.44,63.2842,118.3319,4.05
559,bathsheba,20,BB,1619895713,54,84.2,13.2167,-59.5167,18.41
560,arauca,22,CO,1619895616,65,84.2,7.0847,-70.7591,3.44
561,sur,5,OM,1619895713,61,81.91,22.5667,59.5289,13.42
562,atar,0,MR,1619895713,13,92.26,20.5169,-13.0499,12.53
563,timizart,67,DZ,1619895714,83,55.6,36.8,4.2667,4.09
564,cayenne,0,GF,1619895714,66,86.0,4.9333,-52.3333,13.8
565,raudeberg,10,NO,1619895714,71,43.0,61.9875,5.1352,19.1
566,lata,72,PT,1619895715,55,62.01,40.1629,-8.3327,5.01
567,natal,40,BR,1619895715,62,86.0,-5.795,-35.2094,17.27
568,cervo,3,ES,1619895715,62,55.99,43.6702,-7.4101,7.14
569,broken hill,0,AU,1619895715,51,59.0,-31.95,141.4333,9.22
570,korla,46,CN,1619895716,20,67.59,41.7597,86.1469,17.52
571,choix,0,MX,1619895716,17,90.5,26.7092,-108.3219,8.01
572,beibei,0,CN,1619895716,57,78.8,29.8256,106.4339,6.71
573,shyroke,40,UA,1619895717,59,66.2,47.6917,33.2571,4.47
574,skjervoy,100,NO,1619895717,62,31.5,70.0311,20.9714,1.23
575,damaturu,21,NG,1619895717,12,90.86,11.747,11.9608,7.43
576,adamovka,100,RU,1619895718,49,52.03,51.5223,59.9396,11.18
577,suez,99,EG,1619895718,28,78.42,29.9737,32.5263,12.01
578,kralendijk,75,BQ,1619895656,70,86.0,12.15,-68.2667,14.97
579,tiarei,40,PF,1619895718,65,84.2,-17.5333,-149.3333,8.05
